[
    {
       "airportID":"3886",
       "name":"Naha",
       "city":"Naha",
       "country":"Indonesia",
       "iata":"NAH",
       "icao":"WAMH",
       "latitude":"3.683214",
       "longitude":"125.528019",
       "altitude":"16",
       "timezone":"8",
       "dst":"N",
       "tz":"Asia/Makassar"
    },
    {
       "airportID":"3240",
       "name":"Hasanuddin",
       "city":"Ujung Pandang",
       "country":"Indonesia",
       "iata":"UPG",
       "icao":"WAAA",
       "latitude":"-5.061631",
       "longitude":"119.554042",
       "altitude":"47",
       "timezone":"8",
       "dst":"N",
       "tz":"Asia/Makassar"
    },
    {
       "airportID":"3241",
       "name":"Frans Kaisiepo",
       "city":"Biak",
       "country":"Indonesia",
       "iata":"BIK",
       "icao":"WABB",
       "latitude":"-1.190017",
       "longitude":"136.107997",
       "altitude":"46",
       "timezone":"9",
       "dst":"N",
       "tz":"Asia/Jayapura"
    },
    {
       "airportID":"3242",
       "name":"Nabire",
       "city":"Nabire",
       "country":"Indonesia",
       "iata":"NBX",
       "icao":"WABI",
       "latitude":"-3.368183",
       "longitude":"135.496406",
       "altitude":"20",
       "timezone":"9",
       "dst":"N",
       "tz":"Asia/Jayapura"
    },
    {
       "airportID":"3243",
       "name":"Moses Kilangin",
       "city":"Timika",
       "country":"Indonesia",
       "iata":"TIM",
       "icao":"WABP",
       "latitude":"-4.528275",
       "longitude":"136.887375",
       "altitude":"103",
       "timezone":"9",
       "dst":"N",
       "tz":"Asia/Jayapura"
    },
    {
       "airportID":"3244",
       "name":"Sentani",
       "city":"Jayapura",
       "country":"Indonesia",
       "iata":"DJJ",
       "icao":"WAJJ",
       "latitude":"-2.576953",
       "longitude":"140.516372",
       "altitude":"289",
       "timezone":"9",
       "dst":"N",
       "tz":"Asia/Jayapura"
    },
    {
       "airportID":"3245",
       "name":"Wamena",
       "city":"Wamena",
       "country":"Indonesia",
       "iata":"WMX",
       "icao":"WAJW",
       "latitude":"-4.102511",
       "longitude":"138.957372",
       "altitude":"5085",
       "timezone":"9",
       "dst":"N",
       "tz":"Asia/Jayapura"
    },
    {
       "airportID":"3246",
       "name":"Mopah",
       "city":"Merauke",
       "country":"Indonesia",
       "iata":"MKQ",
       "icao":"WAKK",
       "latitude":"-8.520294",
       "longitude":"140.418453",
       "altitude":"10",
       "timezone":"9",
       "dst":"N",
       "tz":"Asia/Jayapura"
    },
    {
       "airportID":"3247",
       "name":"Jalaluddin",
       "city":"Gorontalo",
       "country":"Indonesia",
       "iata":"GTO",
       "icao":"WAMG",
       "latitude":"0.637119",
       "longitude":"122.849858",
       "altitude":"105",
       "timezone":"8",
       "dst":"N",
       "tz":"Asia/Makassar"
    },
    {
       "airportID":"3249",
       "name":"Mutiara",
       "city":"Palu",
       "country":"Indonesia",
       "iata":"PLW",
       "icao":"WAML",
       "latitude":"-0.918542",
       "longitude":"119.909642",
       "altitude":"284",
       "timezone":"8",
       "dst":"N",
       "tz":"Asia/Makassar"
    },
    {
       "airportID":"3250",
       "name":"Sam Ratulangi",
       "city":"Manado",
       "country":"Indonesia",
       "iata":"MDC",
       "icao":"WAMM",
       "latitude":"1.549447",
       "longitude":"124.925878",
       "altitude":"264",
       "timezone":"8",
       "dst":"N",
       "tz":"Asia/Makassar"
    },
    {
       "airportID":"3251",
       "name":"Kasiguncu",
       "city":"Poso",
       "country":"Indonesia",
       "iata":"PSJ",
       "icao":"WAMP",
       "latitude":"-1.416753",
       "longitude":"120.657669",
       "altitude":"174",
       "timezone":"8",
       "dst":"N",
       "tz":"Asia/Makassar"
    },
    {
       "airportID":"3252",
       "name":"Pitu",
       "city":"Morotai Island",
       "country":"Indonesia",
       "iata":"OTI",
       "icao":"WAMR",
       "latitude":"2.045992",
       "longitude":"128.324708",
       "altitude":"49",
       "timezone":"9",
       "dst":"N",
       "tz":"Asia/Jayapura"
    },
    {
       "airportID":"3253",
       "name":"Sultan Babullah",
       "city":"Ternate",
       "country":"Indonesia",
       "iata":"TTE",
       "icao":"WAMT",
       "latitude":"0.831414",
       "longitude":"127.381486",
       "altitude":"49",
       "timezone":"9",
       "dst":"N",
       "tz":"Asia/Jayapura"
    },
    {
       "airportID":"3254",
       "name":"Bubung",
       "city":"Luwuk",
       "country":"Indonesia",
       "iata":"LUW",
       "icao":"WAMW",
       "latitude":"-1.038919",
       "longitude":"122.771906",
       "altitude":"56",
       "timezone":"8",
       "dst":"N",
       "tz":"Asia/Makassar"
    },
    {
       "airportID":"3256",
       "name":"Pattimura",
       "city":"Ambon",
       "country":"Indonesia",
       "iata":"AMQ",
       "icao":"WAPP",
       "latitude":"-3.710264",
       "longitude":"128.089136",
       "altitude":"33",
       "timezone":"9",
       "dst":"N",
       "tz":"Asia/Jayapura"
    },
    {
       "airportID":"3257",
       "name":"Fak Fak",
       "city":"Fak Fak",
       "country":"Indonesia",
       "iata":"FKQ",
       "icao":"WASF",
       "latitude":"-2.920192",
       "longitude":"132.267031",
       "altitude":"462",
       "timezone":"9",
       "dst":"N",
       "tz":"Asia/Jayapura"
    },
    {
       "airportID":"3258",
       "name":"Kaimana",
       "city":"Kaimana",
       "country":"Indonesia",
       "iata":"KNG",
       "icao":"WASK",
       "latitude":"-3.644517",
       "longitude":"133.695553",
       "altitude":"19",
       "timezone":"9",
       "dst":"N",
       "tz":"Asia/Jayapura"
    },
    {
       "airportID":"3259",
       "name":"Babo",
       "city":"Babo",
       "country":"Indonesia",
       "iata":"BXB",
       "icao":"WASO",
       "latitude":"-2.532242",
       "longitude":"133.438894",
       "altitude":"10",
       "timezone":"9",
       "dst":"N",
       "tz":"Asia/Jayapura"
    },
    {
       "airportID":"3260",
       "name":"Rendani",
       "city":"Manokwari",
       "country":"Indonesia",
       "iata":"MKW",
       "icao":"WASR",
       "latitude":"-0.891833",
       "longitude":"134.049183",
       "altitude":"23",
       "timezone":"9",
       "dst":"N",
       "tz":"Asia/Jayapura"
    },
    {
       "airportID":"3261",
       "name":"Jefman",
       "city":"Sorong",
       "country":"Indonesia",
       "iata":"SOQ",
       "icao":"WASS",
       "latitude":"-0.926358",
       "longitude":"131.121194",
       "altitude":"10",
       "timezone":"9",
       "dst":"N",
       "tz":"Asia/Jayapura"
    },
    {
       "airportID":"3273",
       "name":"Sultan Syarif Kasim Ii",
       "city":"Pekanbaru",
       "country":"Indonesia",
       "iata":"PKU",
       "icao":"WIBB",
       "latitude":"0.460786",
       "longitude":"101.444539",
       "altitude":"102",
       "timezone":"7",
       "dst":"N",
       "tz":"Asia/Jakarta"
    },
    {
       "airportID":"3274",
       "name":"Pinang Kampai",
       "city":"Dumai",
       "country":"Indonesia",
       "iata":"DUM",
       "icao":"WIBD",
       "latitude":"1.609194",
       "longitude":"101.433558",
       "altitude":"55",
       "timezone":"7",
       "dst":"N",
       "tz":"Asia/Jakarta"
    },
    {
       "airportID":"3275",
       "name":"Soekarno Hatta Intl",
       "city":"Jakarta",
       "country":"Indonesia",
       "iata":"CGK",
       "icao":"WIII",
       "latitude":"-6.125567",
       "longitude":"106.655897",
       "altitude":"34",
       "timezone":"7",
       "dst":"N",
       "tz":"Asia/Jakarta"
    },
    {
       "airportID":"3276",
       "name":"Binaka",
       "city":"Gunung Sitoli",
       "country":"Indonesia",
       "iata":"GNS",
       "icao":"WIMB",
       "latitude":"1.166381",
       "longitude":"97.704681",
       "altitude":"20",
       "timezone":"7",
       "dst":"N",
       "tz":"Asia/Jakarta"
    },
    {
       "airportID":"3277",
       "name":"Aek Godang",
       "city":"Padang Sidempuan",
       "country":"Indonesia",
       "iata":"",
       "icao":"WIME",
       "latitude":"1.400103",
       "longitude":"99.430453",
       "altitude":"922",
       "timezone":"7",
       "dst":"N",
       "tz":"Asia/Jakarta"
    },
    {
       "airportID":"3278",
       "name":"Minangkabau",
       "city":"Padang",
       "country":"Indonesia",
       "iata":"PDG",
       "icao":"WIPT",
       "latitude":"-0.874989",
       "longitude":"100.351881",
       "altitude":"9",
       "timezone":"7",
       "dst":"N",
       "tz":"Asia/Jakarta"
    },
    {
       "airportID":"3279",
       "name":"Polonia",
       "city":"Medan",
       "country":"Indonesia",
       "iata":"MES",
       "icao":"WIMM",
       "latitude":"3.558056",
       "longitude":"98.671722",
       "altitude":"114",
       "timezone":"7",
       "dst":"N",
       "tz":"Asia/Jakarta"
    },
    {
       "airportID":"3280",
       "name":"Dr Ferdinand Lumban Tobing",
       "city":"Sibolga",
       "country":"Indonesia",
       "iata":"",
       "icao":"WIMS",
       "latitude":"1.555944",
       "longitude":"98.888908",
       "altitude":"43",
       "timezone":"7",
       "dst":"N",
       "tz":"Asia/Jakarta"
    },
    {
       "airportID":"3281",
       "name":"Nanga Pinoh I",
       "city":"Nangapinoh",
       "country":"Indonesia",
       "iata":"",
       "icao":"WIOG",
       "latitude":"-0.348869",
       "longitude":"111.747606",
       "altitude":"123",
       "timezone":"7",
       "dst":"N",
       "tz":"Asia/Jakarta"
    },
    {
       "airportID":"3282",
       "name":"Rahadi Usman",
       "city":"Ketapang",
       "country":"Indonesia",
       "iata":"KTG",
       "icao":"WIOK",
       "latitude":"-1.816639",
       "longitude":"109.963483",
       "altitude":"46",
       "timezone":"7",
       "dst":"N",
       "tz":"Asia/Jakarta"
    },
    {
       "airportID":"3284",
       "name":"Supadio",
       "city":"Pontianak",
       "country":"Indonesia",
       "iata":"PNK",
       "icao":"WIOO",
       "latitude":"-0.150711",
       "longitude":"109.403892",
       "altitude":"10",
       "timezone":"7",
       "dst":"N",
       "tz":"Asia/Jakarta"
    },
    {
       "airportID":"3287",
       "name":"Sultan Thaha",
       "city":"Jambi",
       "country":"Indonesia",
       "iata":"DJB",
       "icao":"WIPA",
       "latitude":"-1.638017",
       "longitude":"103.644378",
       "altitude":"82",
       "timezone":"7",
       "dst":"N",
       "tz":"Asia/Jakarta"
    },
    {
       "airportID":"3288",
       "name":"Fatmawati Soekarno",
       "city":"Bengkulu",
       "country":"Indonesia",
       "iata":"BKS",
       "icao":"WIPL",
       "latitude":"-3.8637",
       "longitude":"102.339036",
       "altitude":"50",
       "timezone":"7",
       "dst":"N",
       "tz":"Asia/Jakarta"
    },
    {
       "airportID":"3289",
       "name":"Sultan Mahmud Badaruddin Ii",
       "city":"Palembang",
       "country":"Indonesia",
       "iata":"PLM",
       "icao":"WIPP",
       "latitude":"-2.89825",
       "longitude":"104.699903",
       "altitude":"49",
       "timezone":"7",
       "dst":"N",
       "tz":"Asia/Jakarta"
    },
    {
       "airportID":"3291",
       "name":"Japura",
       "city":"Rengat",
       "country":"Indonesia",
       "iata":"RGT",
       "icao":"WIPR",
       "latitude":"-0.352808",
       "longitude":"102.334917",
       "altitude":"62",
       "timezone":"7",
       "dst":"N",
       "tz":"Asia/Jakarta"
    },
    {
       "airportID":"3292",
       "name":"Lhok Sukon",
       "city":"Lhok Sukon",
       "country":"Indonesia",
       "iata":"",
       "icao":"WITL",
       "latitude":"5.069506",
       "longitude":"97.259192",
       "altitude":"28",
       "timezone":"7",
       "dst":"N",
       "tz":"Asia/Jakarta"
    },
    {
       "airportID":"3294",
       "name":"Sultan Iskandarmuda",
       "city":"Banda Aceh",
       "country":"Indonesia",
       "iata":"BTJ",
       "icao":"WITT",
       "latitude":"5.523522",
       "longitude":"95.420372",
       "altitude":"65",
       "timezone":"7",
       "dst":"N",
       "tz":"Asia/Jakarta"
    },
    {
       "airportID":"3887",
       "name":"Andi Jemma",
       "city":"Masamba",
       "country":"Indonesia",
       "iata":"",
       "icao":"WAWM",
       "latitude":"-2.558044",
       "longitude":"120.324383",
       "altitude":"164",
       "timezone":"8",
       "dst":"N",
       "tz":"Asia/Makassar"
    },
    {
       "airportID":"3888",
       "name":"Soroako",
       "city":"Soroako",
       "country":"Indonesia",
       "iata":"",
       "icao":"WAWS",
       "latitude":"-2.531203",
       "longitude":"121.357639",
       "altitude":"1388",
       "timezone":"8",
       "dst":"N",
       "tz":"Asia/Makassar"
    },
    {
       "airportID":"3889",
       "name":"Pongtiku",
       "city":"Makale",
       "country":"Indonesia",
       "iata":"",
       "icao":"WAWT",
       "latitude":"-3.044736",
       "longitude":"119.821536",
       "altitude":"2884",
       "timezone":"8",
       "dst":"N",
       "tz":"Asia/Makassar"
    },
    {
       "airportID":"3890",
       "name":"Wolter Monginsidi",
       "city":"Kendari",
       "country":"Indonesia",
       "iata":"KDI",
       "icao":"WAWW",
       "latitude":"-4.081608",
       "longitude":"122.418231",
       "altitude":"538",
       "timezone":"8",
       "dst":"N",
       "tz":"Asia/Makassar"
    },
    {
       "airportID":"3891",
       "name":"Maimun Saleh",
       "city":"Sabang",
       "country":"Indonesia",
       "iata":"SBG",
       "icao":"WITB",
       "latitude":"5.874131",
       "longitude":"95.339672",
       "altitude":"393",
       "timezone":"7",
       "dst":"N",
       "tz":"Asia/Jakarta"
    },
    {
       "airportID":"3892",
       "name":"Cibeureum",
       "city":"Tasikmalaya",
       "country":"Indonesia",
       "iata":"",
       "icao":"WICM",
       "latitude":"-7.346603",
       "longitude":"108.246092",
       "altitude":"1148",
       "timezone":"7",
       "dst":"N",
       "tz":"Asia/Jakarta"
    },
    {
       "airportID":"3893",
       "name":"Iswahyudi",
       "city":"Madiun",
       "country":"Indonesia",
       "iata":"",
       "icao":"WARI",
       "latitude":"-7.615767",
       "longitude":"111.434117",
       "altitude":"361",
       "timezone":"7",
       "dst":"N",
       "tz":"Asia/Jakarta"
    },
    {
       "airportID":"3894",
       "name":"Abdul Rachman Saleh",
       "city":"Malang",
       "country":"Indonesia",
       "iata":"MLG",
       "icao":"WARA",
       "latitude":"-7.926556",
       "longitude":"112.714514",
       "altitude":"1726",
       "timezone":"7",
       "dst":"N",
       "tz":"Asia/Jakarta"
    },
    {
       "airportID":"3895",
       "name":"Budiarto",
       "city":"Tangerang",
       "country":"Indonesia",
       "iata":"",
       "icao":"WICB",
       "latitude":"-6.293169",
       "longitude":"106.5699",
       "altitude":"151",
       "timezone":"7",
       "dst":"N",
       "tz":"Asia/Jakarta"
    },
    {
       "airportID":"3896",
       "name":"Husein Sastranegara",
       "city":"Bandung",
       "country":"Indonesia",
       "iata":"BDO",
       "icao":"WICC",
       "latitude":"-6.900625",
       "longitude":"107.576294",
       "altitude":"2436",
       "timezone":"7",
       "dst":"N",
       "tz":"Asia/Jakarta"
    },
    {
       "airportID":"3897",
       "name":"Penggung",
       "city":"Cirebon",
       "country":"Indonesia",
       "iata":"CBN",
       "icao":"WICD",
       "latitude":"-6.756144",
       "longitude":"108.539672",
       "altitude":"89",
       "timezone":"7",
       "dst":"N",
       "tz":"Asia/Jakarta"
    },
    {
       "airportID":"3898",
       "name":"Adi Sutjipto",
       "city":"Yogyakarta",
       "country":"Indonesia",
       "iata":"JOG",
       "icao":"WARJ",
       "latitude":"-7.788181",
       "longitude":"110.431758",
       "altitude":"350",
       "timezone":"7",
       "dst":"N",
       "tz":"Asia/Jakarta"
    },
    {
       "airportID":"3899",
       "name":"Tunggul Wulung",
       "city":"Cilacap",
       "country":"Indonesia",
       "iata":"CXP",
       "icao":"WIHL",
       "latitude":"-7.645056",
       "longitude":"109.033911",
       "altitude":"69",
       "timezone":"7",
       "dst":"N",
       "tz":"Asia/Jakarta"
    },
    {
       "airportID":"3900",
       "name":"Pondok Cabe",
       "city":"Jakarta",
       "country":"Indonesia",
       "iata":"PCB",
       "icao":"WIHP",
       "latitude":"-6.336964",
       "longitude":"106.764561",
       "altitude":"200",
       "timezone":"7",
       "dst":"N",
       "tz":"Asia/Jakarta"
    },
    {
       "airportID":"3901",
       "name":"Achmad Yani",
       "city":"Semarang",
       "country":"Indonesia",
       "iata":"SRG",
       "icao":"WARS",
       "latitude":"-6.971447",
       "longitude":"110.374122",
       "altitude":"13",
       "timezone":"7",
       "dst":"N",
       "tz":"Asia/Jakarta"
    },
    {
       "airportID":"3903",
       "name":"Hang Nadim",
       "city":"Batam",
       "country":"Indonesia",
       "iata":"BTH",
       "icao":"WIDD",
       "latitude":"1.121028",
       "longitude":"104.118753",
       "altitude":"126",
       "timezone":"7",
       "dst":"N",
       "tz":"Asia/Jakarta"
    },
    {
       "airportID":"3904",
       "name":"H As Hanandjoeddin",
       "city":"Tanjung Pandan",
       "country":"Indonesia",
       "iata":"TJQ",
       "icao":"WIOD",
       "latitude":"-2.745722",
       "longitude":"107.754917",
       "altitude":"164",
       "timezone":"7",
       "dst":"N",
       "tz":"Asia/Jakarta"
    },
    {
       "airportID":"3905",
       "name":"Depati Amir",
       "city":"Pangkal Pinang",
       "country":"Indonesia",
       "iata":"PGK",
       "icao":"WIPK",
       "latitude":"-2.1622",
       "longitude":"106.139064",
       "altitude":"109",
       "timezone":"7",
       "dst":"N",
       "tz":"Asia/Jakarta"
    },
    {
       "airportID":"3906",
       "name":"Kijang",
       "city":"Tanjung Pinang",
       "country":"Indonesia",
       "iata":"TNJ",
       "icao":"WIDN",
       "latitude":"0.922683",
       "longitude":"104.532311",
       "altitude":"52",
       "timezone":"7",
       "dst":"N",
       "tz":"Asia/Jakarta"
    },
    {
       "airportID":"3907",
       "name":"Dabo",
       "city":"Singkep",
       "country":"Indonesia",
       "iata":"SIQ",
       "icao":"WIDS",
       "latitude":"-0.479189",
       "longitude":"104.579283",
       "altitude":"95",
       "timezone":"7",
       "dst":"N",
       "tz":"Asia/Jakarta"
    },
    {
       "airportID":"3908",
       "name":"Syamsudin Noor",
       "city":"Banjarmasin",
       "country":"Indonesia",
       "iata":"BDJ",
       "icao":"WAOO",
       "latitude":"-3.442356",
       "longitude":"114.762553",
       "altitude":"66",
       "timezone":"8",
       "dst":"N",
       "tz":"Asia/Makassar"
    },
    {
       "airportID":"3909",
       "name":"Batu Licin",
       "city":"Batu Licin",
       "country":"Indonesia",
       "iata":"",
       "icao":"WAOC",
       "latitude":"-3.412408",
       "longitude":"115.995136",
       "altitude":"3",
       "timezone":"8",
       "dst":"N",
       "tz":"Asia/Makassar"
    },
    {
       "airportID":"3910",
       "name":"Iskandar",
       "city":"Pangkalan Bun",
       "country":"Indonesia",
       "iata":"PKN",
       "icao":"WAOI",
       "latitude":"-2.705197",
       "longitude":"111.673208",
       "altitude":"75",
       "timezone":"7",
       "dst":"N",
       "tz":"Asia/Jakarta"
    },
    {
       "airportID":"3911",
       "name":"Tjilik Riwut",
       "city":"Palangkaraya",
       "country":"Indonesia",
       "iata":"PKY",
       "icao":"WAOP",
       "latitude":"-2.225128",
       "longitude":"113.942661",
       "altitude":"82",
       "timezone":"7",
       "dst":"N",
       "tz":"Asia/Jakarta"
    },
    {
       "airportID":"3913",
       "name":"Wai Oti",
       "city":"Maumere",
       "country":"Indonesia",
       "iata":"MOF",
       "icao":"WATC",
       "latitude":"-8.640647",
       "longitude":"122.236889",
       "altitude":"115",
       "timezone":"8",
       "dst":"N",
       "tz":"Asia/Makassar"
    },
    {
       "airportID":"3914",
       "name":"H Hasan Aroeboesman",
       "city":"Ende",
       "country":"Indonesia",
       "iata":"ENE",
       "icao":"WATE",
       "latitude":"-8.849294",
       "longitude":"121.660644",
       "altitude":"49",
       "timezone":"8",
       "dst":"N",
       "tz":"Asia/Makassar"
    },
    {
       "airportID":"3915",
       "name":"Satar Tacik",
       "city":"Ruteng",
       "country":"Indonesia",
       "iata":"RTG",
       "icao":"WATG",
       "latitude":"-8.597011",
       "longitude":"120.477061",
       "altitude":"3510",
       "timezone":"8",
       "dst":"N",
       "tz":"Asia/Makassar"
    },
    {
       "airportID":"3916",
       "name":"El Tari",
       "city":"Kupang",
       "country":"Indonesia",
       "iata":"KOE",
       "icao":"WATT",
       "latitude":"-10.171583",
       "longitude":"123.671136",
       "altitude":"335",
       "timezone":"8",
       "dst":"N",
       "tz":"Asia/Makassar"
    },
    {
       "airportID":"3917",
       "name":"Mutiara Ii",
       "city":"Labuhan Bajo",
       "country":"Indonesia",
       "iata":"LBJ",
       "icao":"WATO",
       "latitude":"-8.486656",
       "longitude":"119.88905",
       "altitude":"66",
       "timezone":"8",
       "dst":"N",
       "tz":"Asia/Makassar"
    },
    {
       "airportID":"3919",
       "name":"Sepinggan",
       "city":"Balikpapan",
       "country":"Indonesia",
       "iata":"BPN",
       "icao":"WALL",
       "latitude":"-1.268272",
       "longitude":"116.894478",
       "altitude":"12",
       "timezone":"8",
       "dst":"N",
       "tz":"Asia/Makassar"
    },
    {
       "airportID":"3920",
       "name":"Juwata",
       "city":"Taraken",
       "country":"Indonesia",
       "iata":"TRK",
       "icao":"WALR",
       "latitude":"3.326694",
       "longitude":"117.565569",
       "altitude":"20",
       "timezone":"8",
       "dst":"N",
       "tz":"Asia/Makassar"
    },
    {
       "airportID":"3921",
       "name":"Temindung",
       "city":"Samarinda",
       "country":"Indonesia",
       "iata":"SRI",
       "icao":"WALS",
       "latitude":"-0.484531",
       "longitude":"117.157111",
       "altitude":"33",
       "timezone":"8",
       "dst":"N",
       "tz":"Asia/Makassar"
    },
    {
       "airportID":"3922",
       "name":"Tanjung Santan",
       "city":"Tanjung Santan",
       "country":"Indonesia",
       "iata":"",
       "icao":"WALT",
       "latitude":"-0.093215",
       "longitude":"117.439292",
       "altitude":"121",
       "timezone":"8",
       "dst":"N",
       "tz":"Asia/Makassar"
    },
    {
       "airportID":"3923",
       "name":"Selaparang",
       "city":"Mataram",
       "country":"Indonesia",
       "iata":"AMI",
       "icao":"WADA",
       "latitude":"-8.560708",
       "longitude":"116.094656",
       "altitude":"52",
       "timezone":"8",
       "dst":"N",
       "tz":"Asia/Makassar"
    },
    {
       "airportID":"3924",
       "name":"Muhammad Salahuddin",
       "city":"Bima",
       "country":"Indonesia",
       "iata":"BMU",
       "icao":"WADB",
       "latitude":"-8.539647",
       "longitude":"118.687322",
       "altitude":"3",
       "timezone":"8",
       "dst":"N",
       "tz":"Asia/Makassar"
    },
    {
       "airportID":"3927",
       "name":"Mau Hau",
       "city":"Waingapu",
       "country":"Indonesia",
       "iata":"WGP",
       "icao":"WADW",
       "latitude":"-9.669217",
       "longitude":"120.302006",
       "altitude":"33",
       "timezone":"8",
       "dst":"N",
       "tz":"Asia/Makassar"
    },
    {
       "airportID":"3928",
       "name":"Juanda",
       "city":"Surabaya",
       "country":"Indonesia",
       "iata":"SUB",
       "icao":"WARR",
       "latitude":"-7.379831",
       "longitude":"112.786858",
       "altitude":"9",
       "timezone":"7",
       "dst":"N",
       "tz":"Asia/Jakarta"
    },
    {
       "airportID":"3929",
       "name":"Adi Sumarmo Wiryokusumo",
       "city":"Solo City",
       "country":"Indonesia",
       "iata":"SOC",
       "icao":"WARQ",
       "latitude":"-7.516089",
       "longitude":"110.756892",
       "altitude":"421",
       "timezone":"7",
       "dst":"N",
       "tz":"Asia/Jakarta"
    },
    {
       "airportID":"3940",
       "name":"Bali Ngurah Rai",
       "city":"Denpasar",
       "country":"Indonesia",
       "iata":"DPS",
       "icao":"WADD",
       "latitude":"-8.748169",
       "longitude":"115.167172",
       "altitude":"14",
       "timezone":"8",
       "dst":"N",
       "tz":"Asia/Makassar"
    },
    {
       "airportID":"6203",
       "name":"Sumbawa Besar Airport",
       "city":"Sumbawa Island",
       "country":"Indonesia",
       "iata":"SWQ",
       "icao":"WADS",
       "latitude":"-8.489039",
       "longitude":"117.412119",
       "altitude":"16",
       "timezone":"8",
       "dst":"N",
       "tz":"Asia/Makassar"
    },
    {
       "airportID":"6204",
       "name":"Tambolaka Airport",
       "city":"Waikabubak-Sumba Island",
       "country":"Indonesia",
       "iata":"TMC",
       "icao":"WADT",
       "latitude":"-9.409717",
       "longitude":"119.244494",
       "altitude":"161",
       "timezone":"8",
       "dst":"N",
       "tz":"Asia/Makassar"
    },
    {
       "airportID":"6205",
       "name":"Bokondini Airport",
       "city":"Bokondini-Papua Island",
       "country":"Indonesia",
       "iata":"BUI",
       "icao":"WAJB",
       "latitude":"-3.58365",
       "longitude":"138.533",
       "altitude":"9104",
       "timezone":"9",
       "dst":"N",
       "tz":"Asia/Jayapura"
    },
    {
       "airportID":"6206",
       "name":"Senggeh Airport",
       "city":"Senggeh-Papua Island",
       "country":"Indonesia",
       "iata":"SEH",
       "icao":"WAJS",
       "latitude":"-3.43333",
       "longitude":"140.817",
       "altitude":"914",
       "timezone":"9",
       "dst":"N",
       "tz":"Asia/Jayapura"
    },
    {
       "airportID":"6207",
       "name":"Tanjung Harapan Airport",
       "city":"Tanjung Selor-Borneo Island",
       "country":"Indonesia",
       "iata":"TJS",
       "icao":"WALG",
       "latitude":"2.83641",
       "longitude":"117.374",
       "altitude":"10",
       "timezone":"8",
       "dst":"N",
       "tz":"Asia/Makassar"
    },
    {
       "airportID":"6208",
       "name":"Datadawai Airport",
       "city":"Datadawai-Borneo Island",
       "country":"Indonesia",
       "iata":"DTD",
       "icao":"WALJ",
       "latitude":"0.717",
       "longitude":"116.483",
       "altitude":"229",
       "timezone":"8",
       "dst":"N",
       "tz":"Asia/Makassar"
    },
    {
       "airportID":"6209",
       "name":"Barau(Kalimaru) Airport",
       "city":"Tanjung Redep-Borneo Island",
       "country":"Indonesia",
       "iata":"BEJ",
       "icao":"WALK",
       "latitude":"2.155497",
       "longitude":"117.432256",
       "altitude":"59",
       "timezone":"8",
       "dst":"N",
       "tz":"Asia/Makassar"
    },
    {
       "airportID":"6210",
       "name":"Warukin Airport",
       "city":"Tanjung-Borneo Island",
       "country":"Indonesia",
       "iata":"TJG",
       "icao":"WAON",
       "latitude":"-2.21656",
       "longitude":"115.436",
       "altitude":"197",
       "timezone":"8",
       "dst":"N",
       "tz":"Asia/Makassar"
    },
    {
       "airportID":"6211",
       "name":"Sampit(Hasan) Airport",
       "city":"Sampit-Borneo Island",
       "country":"Indonesia",
       "iata":"SMQ",
       "icao":"WAOS",
       "latitude":"-2.499194",
       "longitude":"112.974992",
       "altitude":"50",
       "timezone":"7",
       "dst":"N",
       "tz":"Asia/Jakarta"
    },
    {
       "airportID":"6212",
       "name":"Dumatubun Airport",
       "city":"Langgur-Kei Islands",
       "country":"Indonesia",
       "iata":"LUV",
       "icao":"WAPL",
       "latitude":"-5.661619",
       "longitude":"132.731431",
       "altitude":"10",
       "timezone":"9",
       "dst":"N",
       "tz":"Asia/Jayapura"
    },
    {
       "airportID":"6213",
       "name":"Mali Airport",
       "city":"Alor Island",
       "country":"Indonesia",
       "iata":"ARD",
       "icao":"WATM",
       "latitude":"-8.13234",
       "longitude":"124.597",
       "altitude":"10",
       "timezone":"8",
       "dst":"N",
       "tz":"Asia/Makassar"
    },
    {
       "airportID":"6223",
       "name":"Radin Inten II (Branti) Airport",
       "city":"Bandar Lampung-Sumatra Island",
       "country":"Indonesia",
       "iata":"TKG",
       "icao":"WICT",
       "latitude":"-5.242339",
       "longitude":"105.178939",
       "altitude":"282",
       "timezone":"7",
       "dst":"N",
       "tz":"Asia/Jakarta"
    },
    {
       "airportID":"6224",
       "name":"Halim Perdanakusuma International Airport",
       "city":"Jakarta",
       "country":"Indonesia",
       "iata":"HLP",
       "icao":"WIHH",
       "latitude":"-6.26661",
       "longitude":"106.891",
       "altitude":"84",
       "timezone":"7",
       "dst":"N",
       "tz":"Asia/Jakarta"
    },
    {
       "airportID":"6225",
       "name":"Ranai Airport",
       "city":"Ranai-Natuna Besar Island",
       "country":"Indonesia",
       "iata":"NTX",
       "icao":"WION",
       "latitude":"3.908714",
       "longitude":"108.387897",
       "altitude":"7",
       "timezone":"7",
       "dst":"N",
       "tz":"Asia/Jakarta"
    },
    {
       "airportID":"6226",
       "name":"Pangsuma Airport",
       "city":"Putussibau-Borneo Island",
       "country":"Indonesia",
       "iata":"PSU",
       "icao":"WIOP",
       "latitude":"0.835578",
       "longitude":"112.937144",
       "altitude":"297",
       "timezone":"7",
       "dst":"N",
       "tz":"Asia/Jakarta"
    },
    {
       "airportID":"6227",
       "name":"Susilo Airport",
       "city":"Sintang-Borneo Island",
       "country":"Indonesia",
       "iata":"SQG",
       "icao":"WIOS",
       "latitude":"0.063619",
       "longitude":"111.473428",
       "altitude":"98",
       "timezone":"7",
       "dst":"N",
       "tz":"Asia/Jakarta"
    },
    {
       "airportID":"6228",
       "name":"Pendopo Airport",
       "city":"Talang Gudang-Sumatra Island",
       "country":"Indonesia",
       "iata":"PDO",
       "icao":"WIPQ",
       "latitude":"-3.286069",
       "longitude":"103.8796",
       "altitude":"184",
       "timezone":"7",
       "dst":"N",
       "tz":"Asia/Jakarta"
    },
    {
       "airportID":"6229",
       "name":"Malikus Saleh Airport",
       "city":"Lhok Seumawe-Sumatra Island",
       "country":"Indonesia",
       "iata":"LSW",
       "icao":"WITM",
       "latitude":"5.226681",
       "longitude":"96.950342",
       "altitude":"90",
       "timezone":"7",
       "dst":"N",
       "tz":"Asia/Jakarta"
    },
    {
       "airportID":"6231",
       "name":"Stagen Airport",
       "city":"Laut Island",
       "country":"Indonesia",
       "iata":"KBU",
       "icao":"WRBK",
       "latitude":"-3.29472",
       "longitude":"116.165",
       "altitude":"4",
       "timezone":"8",
       "dst":"N",
       "tz":"Asia/Makassar"
    },
    {
       "airportID":"6232",
       "name":"Long Bawan Airport",
       "city":"Long Bawan-Borneo Island",
       "country":"Indonesia",
       "iata":"LBW",
       "icao":"WRLB",
       "latitude":"3.867",
       "longitude":"115.683",
       "altitude":"3590",
       "timezone":"8",
       "dst":"N",
       "tz":"Asia/Makassar"
    },
    {
       "airportID":"6233",
       "name":"Nunukan Airport",
       "city":"Nunukan-Nunukan Island",
       "country":"Indonesia",
       "iata":"NNX",
       "icao":"WRLF",
       "latitude":"4.13653",
       "longitude":"117.667",
       "altitude":"52",
       "timezone":"8",
       "dst":"N",
       "tz":"Asia/Makassar"
    },
    {
       "airportID":"6234",
       "name":"Long Apung Airport",
       "city":"Long Apung-Borneo Island",
       "country":"Indonesia",
       "iata":"LPU",
       "icao":"WRLP",
       "latitude":"0.583",
       "longitude":"115.6",
       "altitude":"627",
       "timezone":"8",
       "dst":"N",
       "tz":"Asia/Makassar"
    },
    {
       "airportID":"6455",
       "name":"Pagerungan",
       "city":"Pagerungan",
       "country":"Indonesia",
       "iata":"",
       "icao":"WA19",
       "latitude":"-6.956608",
       "longitude":"115.931239",
       "altitude":"20",
       "timezone":"7",
       "dst":"N",
       "tz":"Asia/Jakarta"
    },
    {
       "airportID":"7536",
       "name":"Matak Airport",
       "city":"Anambas Islands",
       "country":"Indonesia",
       "iata":"MWK",
       "icao":"WIOM",
       "latitude":"3.348119",
       "longitude":"106.25805",
       "altitude":"10",
       "timezone":"7",
       "dst":"N",
       "tz":"\\N"
    },
    {
       "airportID":"7543",
       "name":"Tana Toraja Airport",
       "city":"Toraja",
       "country":"Indonesia",
       "iata":"TTR",
       "icao":"\\N",
       "latitude":"-3.416667",
       "longitude":"119.916664",
       "altitude":"0",
       "timezone":"8",
       "dst":"N",
       "tz":"Asia/Makassar"
    },
    {
       "airportID":"8078",
       "name":"Bandanaira Airport",
       "city":"Bandanaira-Naira Island",
       "country":"Indonesia",
       "iata":"NDA",
       "icao":"\\N",
       "latitude":"-4.53333",
       "longitude":"129.9",
       "altitude":"37",
       "timezone":"9",
       "dst":"N",
       "tz":"\\N"
    },
    {
       "airportID":"8382",
       "name":"Pogapa Airstrip",
       "city":"Pogapa",
       "country":"Indonesia",
       "iata":"",
       "icao":"\\N",
       "latitude":"-3.7518",
       "longitude":"136.842481",
       "altitude":"6060",
       "timezone":"9",
       "dst":"N",
       "tz":"Asia/Jayapura"
    },
    {
       "airportID":"8383",
       "name":"Pogapa Airstrip",
       "city":"Pogapa",
       "country":"Indonesia",
       "iata":"",
       "icao":"\\N",
       "latitude":"-3.7518",
       "longitude":"136.842481",
       "altitude":"6060",
       "timezone":"9",
       "dst":"N",
       "tz":"Asia/Jayapura"
    },
    {
       "airportID":"8401",
       "name":"Lombok International Airport",
       "city":"Praya",
       "country":"Indonesia",
       "iata":"LOP",
       "icao":"WADL",
       "latitude":"-8.7573222",
       "longitude":"116.276675",
       "altitude":"52",
       "timezone":"8",
       "dst":"N",
       "tz":"Asia/Makassar"
    },
    {
       "airportID":"8735",
       "name":"Pomalaa",
       "city":"Pomalaa",
       "country":"Indonesia",
       "iata":"PUM",
       "icao":"\\N",
       "latitude":"-4.183333",
       "longitude":"121.61667",
       "altitude":"0",
       "timezone":"8",
       "dst":"N",
       "tz":"Asia/Makassar"
    },
    {
       "airportID":"8752",
       "name":"Pangandaran-Java Island-Nusawiru Airport",
       "city":"Nusawiru",
       "country":"Indonesia",
       "iata":"",
       "icao":"WI1A",
       "latitude":"-7.72039",
       "longitude":"108.489998",
       "altitude":"16",
       "timezone":"7",
       "dst":"N",
       "tz":"Asia/Jakarta"
    },
    {
       "airportID":"8807",
       "name":"Padang Tabing",
       "city":"Padang",
       "country":"Indonesia",
       "iata":"",
       "icao":"WIMG",
       "latitude":"-0.875",
       "longitude":"100.3519",
       "altitude":"3",
       "timezone":"7",
       "dst":"U",
       "tz":"Asia/Jakarta"
    },
    {
       "airportID":"9103",
       "name":"Maranggo",
       "city":"Sulawesi Tenggara",
       "country":"Indonesia",
       "iata":"",
       "icao":"WA44",
       "latitude":"-5.76457",
       "longitude":"123.917",
       "altitude":"169",
       "timezone":"8",
       "dst":"N",
       "tz":"Asia/Makassar"
    },
    {
       "airportID":"9154",
       "name":"Depati Parbo Airport",
       "city":"Sungai Penuh",
       "country":"Indonesia",
       "iata":"",
       "icao":"\\N",
       "latitude":"1.881071",
       "longitude":"101.442261",
       "altitude":"2000",
       "timezone":"7",
       "dst":"U",
       "tz":"Asia/Jakarta"
    },
    {
       "airportID":"9181",
       "name":"Tampa Padang",
       "city":"Mamuju",
       "country":"Indonesia",
       "iata":"MJU",
       "icao":"WAWJ",
       "latitude":"-2.583333",
       "longitude":"119.033333",
       "altitude":"2",
       "timezone":"8",
       "dst":"N",
       "tz":"Asia/Makassar"
    },
    {
       "airportID":"9397",
       "name":"Waris Airport",
       "city":"Waris-Papua Island",
       "country":"Indonesia",
       "iata":"WAR",
       "icao":"WAJR",
       "latitude":"-3.22243",
       "longitude":"140.9790039",
       "altitude":"1224",
       "timezone":"9",
       "dst":"U",
       "tz":"Asia/Jayapura"
    },
    {
       "airportID":"9401",
       "name":"Angguruk airstrip",
       "city":"Angguruk",
       "country":"Indonesia",
       "iata":"",
       "icao":"\\N",
       "latitude":"-4.2001",
       "longitude":"139.4329",
       "altitude":"4200",
       "timezone":"9",
       "dst":"U",
       "tz":"Asia/Jayapura"
    }
 ]